{
  "Uppsala University": { "lat": 59.8586, "lng": 17.6389, "city": "Uppsala", "country": "Sweden" },
  "University of Copenhagen": { "lat": 55.6802, "lng": 12.5720, "city": "Copenhagen", "country": "Denmark" },
  "Wellcome Sanger Institute": { "lat": 52.0833, "lng": 0.1833, "city": "Hinxton", "country": "UK" },
  "University of Washington": { "lat": 47.6553, "lng": -122.3035, "city": "Seattle", "country": "USA" },
  "University of Oxford": { "lat": 51.7548, "lng": -1.2544, "city": "Oxford", "country": "UK" },
  "University of Basel": { "lat": 47.5596, "lng": 7.5886, "city": "Basel", "country": "Switzerland" },
  "Lund University": { "lat": 55.7047, "lng": 13.1910, "city": "Lund", "country": "Sweden" },
  "University of Oregon": { "lat": 44.0448, "lng": -123.0726, "city": "Eugene", "country": "USA" },
  "University of Cambridge": { "lat": 52.2043, "lng": 0.1149, "city": "Cambridge", "country": "UK" },
  "Washington University in St. Louis": { "lat": 38.6488, "lng": -90.3108, "city": "St. Louis", "country": "USA" },
  "University of Exeter": { "lat": 50.7372, "lng": -3.5351, "city": "Exeter", "country": "UK" },
  "Barcelona Supercomputing Center": { "lat": 41.3897, "lng": 2.1160, "city": "Barcelona", "country": "Spain" },
  "Dalhousie University": { "lat": 44.6376, "lng": -63.5911, "city": "Halifax", "country": "Canada" },
  "University of Maryland": { "lat": 38.9869, "lng": -76.9426, "city": "College Park", "country": "USA" },
  "Queen Mary University of London": { "lat": 51.5241, "lng": -0.0404, "city": "London", "country": "UK" },
  "Indiana University": { "lat": 39.1784, "lng": -86.5133, "city": "Bloomington", "country": "USA" },
  "University of Warsaw": { "lat": 52.2407, "lng": 21.0186, "city": "Warsaw", "country": "Poland" },
  "Max Planck Institute for Evolutionary Anthropology": { "lat": 51.3217, "lng": 12.3947, "city": "Leipzig", "country": "Germany" },
  "University of Bristol": { "lat": 51.4584, "lng": -2.6030, "city": "Bristol", "country": "UK" },
  "University of Edinburgh": { "lat": 55.9445, "lng": -3.1892, "city": "Edinburgh", "country": "UK" },
  "University of Colorado Boulder": { "lat": 40.0076, "lng": -105.2659, "city": "Boulder", "country": "USA" },
  "SIB Swiss Institute of Bioinformatics": { "lat": 46.5191, "lng": 6.5668, "city": "Lausanne", "country": "Switzerland" },
  "University of Illinois": { "lat": 40.1020, "lng": -88.2272, "city": "Urbana-Champaign", "country": "USA" },
  "Ohio State University": { "lat": 40.0067, "lng": -83.0305, "city": "Columbus", "country": "USA" },
  "Natural History Museum, University of Oslo": { "lat": 59.9139, "lng": 10.7522, "city": "Oslo", "country": "Norway" },
  "University of Oslo": { "lat": 59.9139, "lng": 10.7522, "city": "Oslo", "country": "Norway" },
  "CNRS": { "lat": 48.8566, "lng": 2.3522, "city": "Paris", "country": "France" },
  "University of Lille": { "lat": 50.6099, "lng": 3.1373, "city": "Lille", "country": "France" },
  "Harvard University": { "lat": 42.3770, "lng": -71.1167, "city": "Cambridge", "country": "USA" },
  "MIT": { "lat": 42.3601, "lng": -71.0942, "city": "Cambridge", "country": "USA" },
  "Stanford University": { "lat": 37.4275, "lng": -122.1697, "city": "Stanford", "country": "USA" },
  "University of California, Berkeley": { "lat": 37.8719, "lng": -122.2585, "city": "Berkeley", "country": "USA" },
  "University of British Columbia": { "lat": 49.2606, "lng": -123.2460, "city": "Vancouver", "country": "Canada" },
  "ETH Zurich": { "lat": 47.3769, "lng": 8.5417, "city": "Zurich", "country": "Switzerland" },
  "University of Glasgow": { "lat": 55.8724, "lng": -4.2900, "city": "Glasgow", "country": "UK" },
  "University College London": { "lat": 51.5246, "lng": -0.1340, "city": "London", "country": "UK" },
  "Institut Pasteur": { "lat": 48.8403, "lng": 2.3113, "city": "Paris", "country": "France" },
  "Karolinska Institute": { "lat": 59.3498, "lng": 18.0263, "city": "Stockholm", "country": "Sweden" },
  "University of Vienna": { "lat": 48.2132, "lng": 16.3600, "city": "Vienna", "country": "Austria" },
  "University of Zurich": { "lat": 47.3744, "lng": 8.5510, "city": "Zurich", "country": "Switzerland" },
  "University of Melbourne": { "lat": -37.7983, "lng": 144.9610, "city": "Melbourne", "country": "Australia" },
  "University of Sydney": { "lat": -33.8886, "lng": 151.1873, "city": "Sydney", "country": "Australia" },
  "University of Tokyo": { "lat": 35.7126, "lng": 139.7619, "city": "Tokyo", "country": "Japan" },
  "National University of Singapore": { "lat": 1.2966, "lng": 103.7764, "city": "Singapore", "country": "Singapore" },
  "Chinese Academy of Sciences": { "lat": 39.9075, "lng": 116.3972, "city": "Beijing", "country": "China" },
  "University of Connecticut": { "lat": 41.8077, "lng": -72.2540, "city": "Storrs", "country": "USA" },
  "University of California, Davis": { "lat": 38.5382, "lng": -121.7617, "city": "Davis", "country": "USA" },
  "University of California, Santa Cruz": { "lat": 36.9916, "lng": -122.0583, "city": "Santa Cruz", "country": "USA" },
  "University of California, San Diego": { "lat": 32.8801, "lng": -117.2340, "city": "San Diego", "country": "USA" },
  "University of Michigan": { "lat": 42.2780, "lng": -83.7382, "city": "Ann Arbor", "country": "USA" },
  "University of Chicago": { "lat": 41.7886, "lng": -87.5987, "city": "Chicago", "country": "USA" },
  "Duke University": { "lat": 36.0014, "lng": -78.9382, "city": "Durham", "country": "USA" },
  "Emory University": { "lat": 33.7925, "lng": -84.3240, "city": "Atlanta", "country": "USA" },
  "Yale University": { "lat": 41.3163, "lng": -72.9223, "city": "New Haven", "country": "USA" },
  "Princeton University": { "lat": 40.3431, "lng": -74.6551, "city": "Princeton", "country": "USA" },
  "Cornell University": { "lat": 42.4534, "lng": -76.4735, "city": "Ithaca", "country": "USA" },
  "Columbia University": { "lat": 40.8075, "lng": -73.9626, "city": "New York", "country": "USA" },
  "New York University": { "lat": 40.7295, "lng": -73.9965, "city": "New York", "country": "USA" },
  "University of Pennsylvania": { "lat": 39.9522, "lng": -75.1932, "city": "Philadelphia", "country": "USA" },
  "Johns Hopkins University": { "lat": 39.3299, "lng": -76.6205, "city": "Baltimore", "country": "USA" },
  "University of North Carolina": { "lat": 35.9049, "lng": -79.0469, "city": "Chapel Hill", "country": "USA" },
  "University of Texas": { "lat": 30.2849, "lng": -97.7341, "city": "Austin", "country": "USA" },
  "University of Arizona": { "lat": 32.2319, "lng": -110.9501, "city": "Tucson", "country": "USA" },
  "Arizona State University": { "lat": 33.4242, "lng": -111.9281, "city": "Tempe", "country": "USA" },
  "University of Utah": { "lat": 40.7649, "lng": -111.8421, "city": "Salt Lake City", "country": "USA" },
  "University of Minnesota": { "lat": 44.9778, "lng": -93.2650, "city": "Minneapolis", "country": "USA" },
  "University of Wisconsin": { "lat": 43.0766, "lng": -89.4125, "city": "Madison", "country": "USA" },
  "University of Florida": { "lat": 29.6436, "lng": -82.3549, "city": "Gainesville", "country": "USA" },
  "University of Georgia": { "lat": 33.9480, "lng": -83.3773, "city": "Athens", "country": "USA" },
  "University of Virginia": { "lat": 38.0336, "lng": -78.5080, "city": "Charlottesville", "country": "USA" },
  "University of Pittsburgh": { "lat": 40.4444, "lng": -79.9608, "city": "Pittsburgh", "country": "USA" },
  "Carnegie Mellon University": { "lat": 40.4433, "lng": -79.9436, "city": "Pittsburgh", "country": "USA" },
  "University of Toronto": { "lat": 43.6629, "lng": -79.3957, "city": "Toronto", "country": "Canada" },
  "McGill University": { "lat": 45.5048, "lng": -73.5772, "city": "Montreal", "country": "Canada" },
  "University of Alberta": { "lat": 53.5232, "lng": -113.5263, "city": "Edmonton", "country": "Canada" },
  "University of Calgary": { "lat": 51.0781, "lng": -114.1319, "city": "Calgary", "country": "Canada" },
  "University of Waterloo": { "lat": 43.4723, "lng": -80.5449, "city": "Waterloo", "country": "Canada" },
  "McMaster University": { "lat": 43.2609, "lng": -79.9192, "city": "Hamilton", "country": "Canada" },
  "University of Ottawa": { "lat": 45.4231, "lng": -75.6831, "city": "Ottawa", "country": "Canada" },
  "Australian National University": { "lat": -35.2777, "lng": 149.1185, "city": "Canberra", "country": "Australia" },
  "University of Queensland": { "lat": -27.4975, "lng": 153.0137, "city": "Brisbane", "country": "Australia" },
  "Monash University": { "lat": -37.9105, "lng": 145.1362, "city": "Melbourne", "country": "Australia" },
  "University of New South Wales": { "lat": -33.9173, "lng": 151.2313, "city": "Sydney", "country": "Australia" },
  "University of Western Australia": { "lat": -31.9797, "lng": 115.8176, "city": "Perth", "country": "Australia" },
  "University of Adelaide": { "lat": -34.9209, "lng": 138.6057, "city": "Adelaide", "country": "Australia" },
  "University of Auckland": { "lat": -36.8523, "lng": 174.7691, "city": "Auckland", "country": "New Zealand" },
  "University of Otago": { "lat": -45.8665, "lng": 170.5179, "city": "Dunedin", "country": "New Zealand" },
  "Hebrew University of Jerusalem": { "lat": 31.7964, "lng": 35.2464, "city": "Jerusalem", "country": "Israel" },
  "Tel Aviv University": { "lat": 32.1133, "lng": 34.8055, "city": "Tel Aviv", "country": "Israel" },
  "Weizmann Institute of Science": { "lat": 31.9071, "lng": 34.8098, "city": "Rehovot", "country": "Israel" },
  "University of Cape Town": { "lat": -33.9577, "lng": 18.4612, "city": "Cape Town", "country": "South Africa" },
  "University of the Witwatersrand": { "lat": -26.1917, "lng": 28.0306, "city": "Johannesburg", "country": "South Africa" },
  "King's College London": { "lat": 51.5115, "lng": -0.1160, "city": "London", "country": "UK" },
  "Imperial College London": { "lat": 51.4988, "lng": -0.1749, "city": "London", "country": "UK" },
  "London School of Economics": { "lat": 51.5144, "lng": -0.1174, "city": "London", "country": "UK" },
  "University of Manchester": { "lat": 53.4668, "lng": -2.2339, "city": "Manchester", "country": "UK" },
  "University of Birmingham": { "lat": 52.4508, "lng": -1.9305, "city": "Birmingham", "country": "UK" },
  "University of Leeds": { "lat": 53.8067, "lng": -1.5550, "city": "Leeds", "country": "UK" },
  "University of Sheffield": { "lat": 53.3811, "lng": -1.4884, "city": "Sheffield", "country": "UK" },
  "University of Liverpool": { "lat": 53.4048, "lng": -2.9653, "city": "Liverpool", "country": "UK" },
  "University of Nottingham": { "lat": 52.9388, "lng": -1.1981, "city": "Nottingham", "country": "UK" },
  "University of Southampton": { "lat": 50.9344, "lng": -1.3965, "city": "Southampton", "country": "UK" },
  "University of Warwick": { "lat": 52.3793, "lng": -1.5615, "city": "Coventry", "country": "UK" },
  "University of Sussex": { "lat": 50.8682, "lng": -0.0877, "city": "Brighton", "country": "UK" },
  "University of York": { "lat": 53.9461, "lng": -1.0518, "city": "York", "country": "UK" },
  "University of St Andrews": { "lat": 56.3398, "lng": -2.7967, "city": "St Andrews", "country": "UK" },
  "University of Aberdeen": { "lat": 57.1648, "lng": -2.1015, "city": "Aberdeen", "country": "UK" },
  "University of Dundee": { "lat": 56.4583, "lng": -2.9824, "city": "Dundee", "country": "UK" },
  "University of Stirling": { "lat": 56.1462, "lng": -3.9178, "city": "Stirling", "country": "UK" },
  "Cardiff University": { "lat": 51.4866, "lng": -3.1791, "city": "Cardiff", "country": "UK" },
  "Swansea University": { "lat": 51.6092, "lng": -3.9801, "city": "Swansea", "country": "UK" },
  "Queen's University Belfast": { "lat": 54.5844, "lng": -5.9340, "city": "Belfast", "country": "UK" },
  "Trinity College Dublin": { "lat": 53.3438, "lng": -6.2546, "city": "Dublin", "country": "Ireland" },
  "University College Dublin": { "lat": 53.3074, "lng": -6.2190, "city": "Dublin", "country": "Ireland" },
  "University College Cork": { "lat": 51.8939, "lng": -8.4919, "city": "Cork", "country": "Ireland" },
  "National University of Ireland, Galway": { "lat": 53.2798, "lng": -9.0621, "city": "Galway", "country": "Ireland" },
  "Aarhus University": { "lat": 56.1674, "lng": 10.1991, "city": "Aarhus", "country": "Denmark" },
  "Technical University of Denmark": { "lat": 55.7858, "lng": 12.5214, "city": "Kongens Lyngby", "country": "Denmark" },
  "University of Southern Denmark": { "lat": 55.3678, "lng": 10.4281, "city": "Odense", "country": "Denmark" },
  "University of Bergen": { "lat": 60.3879, "lng": 5.3213, "city": "Bergen", "country": "Norway" },
  "Norwegian University of Science and Technology": { "lat": 63.4175, "lng": 10.4027, "city": "Trondheim", "country": "Norway" },
  "University of Tromsø": { "lat": 69.6809, "lng": 18.9778, "city": "Tromsø", "country": "Norway" },
  "Stockholm University": { "lat": 59.3650, "lng": 18.0584, "city": "Stockholm", "country": "Sweden" },
  "KTH Royal Institute of Technology": { "lat": 59.3498, "lng": 18.0707, "city": "Stockholm", "country": "Sweden" },
  "Chalmers University of Technology": { "lat": 57.6889, "lng": 11.9773, "city": "Gothenburg", "country": "Sweden" },
  "University of Gothenburg": { "lat": 57.6962, "lng": 11.9819, "city": "Gothenburg", "country": "Sweden" },
  "Linköping University": { "lat": 58.3980, "lng": 15.5767, "city": "Linköping", "country": "Sweden" },
  "Umeå University": { "lat": 63.8205, "lng": 20.3073, "city": "Umeå", "country": "Sweden" },
  "University of Helsinki": { "lat": 60.1699, "lng": 24.9384, "city": "Helsinki", "country": "Finland" },
  "Aalto University": { "lat": 60.1859, "lng": 24.8276, "city": "Espoo", "country": "Finland" },
  "University of Turku": { "lat": 60.4545, "lng": 22.2881, "city": "Turku", "country": "Finland" },
  "University of Oulu": { "lat": 65.0593, "lng": 25.4663, "city": "Oulu", "country": "Finland" },
  "University of Iceland": { "lat": 64.1402, "lng": -21.9501, "city": "Reykjavik", "country": "Iceland" },
  "Utrecht University": { "lat": 52.0907, "lng": 5.1214, "city": "Utrecht", "country": "Netherlands" },
  "University of Amsterdam": { "lat": 52.3559, "lng": 4.9558, "city": "Amsterdam", "country": "Netherlands" },
  "Vrije Universiteit Amsterdam": { "lat": 52.3340, "lng": 4.8655, "city": "Amsterdam", "country": "Netherlands" },
  "University of Groningen": { "lat": 53.2194, "lng": 6.5665, "city": "Groningen", "country": "Netherlands" },
  "Leiden University": { "lat": 52.1574, "lng": 4.4839, "city": "Leiden", "country": "Netherlands" },
  "Delft University of Technology": { "lat": 52.0021, "lng": 4.3727, "city": "Delft", "country": "Netherlands" },
  "Erasmus University Rotterdam": { "lat": 51.9173, "lng": 4.5256, "city": "Rotterdam", "country": "Netherlands" },
  "Radboud University Nijmegen": { "lat": 51.8226, "lng": 5.8686, "city": "Nijmegen", "country": "Netherlands" },
  "Wageningen University": { "lat": 51.9851, "lng": 5.6642, "city": "Wageningen", "country": "Netherlands" },
  "KU Leuven": { "lat": 50.8781, "lng": 4.6997, "city": "Leuven", "country": "Belgium" },
  "Université catholique de Louvain": { "lat": 50.6698, "lng": 4.6125, "city": "Louvain-la-Neuve", "country": "Belgium" },
  "Ghent University": { "lat": 51.0460, "lng": 3.7279, "city": "Ghent", "country": "Belgium" },
  "University of Antwerp": { "lat": 51.1642, "lng": 4.4089, "city": "Antwerp", "country": "Belgium" },
  "Vrije Universiteit Brussel": { "lat": 50.8225, "lng": 4.3941, "city": "Brussels", "country": "Belgium" },
  "University of Liège": { "lat": 50.5856, "lng": 5.5609, "city": "Liège", "country": "Belgium" },
  "University of Luxembourg": { "lat": 49.6267, "lng": 6.1583, "city": "Luxembourg", "country": "Luxembourg" },
  "Ludwig Maximilian University of Munich": { "lat": 48.1508, "lng": 11.5809, "city": "Munich", "country": "Germany" },
  "Technical University of Munich": { "lat": 48.2628, "lng": 11.6672, "city": "Munich", "country": "Germany" },
  "Heidelberg University": { "lat": 49.4093, "lng": 8.6715, "city": "Heidelberg", "country": "Germany" },
  "Humboldt University of Berlin": { "lat": 52.5170, "lng": 13.3933, "city": "Berlin", "country": "Germany" },
  "Free University of Berlin": { "lat": 52.4532, "lng": 13.2904, "city": "Berlin", "country": "Germany" },
  "Technical University of Berlin": { "lat": 52.5125, "lng": 13.3267, "city": "Berlin", "country": "Germany" },
  "University of Freiburg": { "lat": 48.0097, "lng": 7.8570, "city": "Freiburg", "country": "Germany" },
  "University of Tübingen": { "lat": 48.5279, "lng": 9.0439, "city": "Tübingen", "country": "Germany" },
  "University of Göttingen": { "lat": 51.5413, "lng": 9.9390, "city": "Göttingen", "country": "Germany" },
  "University of Bonn": { "lat": 50.7267, "lng": 7.0863, "city": "Bonn", "country": "Germany" },
  "University of Cologne": { "lat": 50.9279, "lng": 6.9282, "city": "Cologne", "country": "Germany" },
  "Goethe University Frankfurt": { "lat": 50.1267, "lng": 8.6642, "city": "Frankfurt", "country": "Germany" },
  "University of Hamburg": { "lat": 53.5663, "lng": 9.9845, "city": "Hamburg", "country": "Germany" },
  "RWTH Aachen University": { "lat": 50.7801, "lng": 6.0657, "city": "Aachen", "country": "Germany" },
  "University of Stuttgart": { "lat": 48.7450, "lng": 9.1066, "city": "Stuttgart", "country": "Germany" },
  "Karlsruhe Institute of Technology": { "lat": 49.0126, "lng": 8.4169, "city": "Karlsruhe", "country": "Germany" },
  "Technical University of Dresden": { "lat": 51.0280, "lng": 13.7267, "city": "Dresden", "country": "Germany" },
  "University of Erlangen-Nuremberg": { "lat": 49.5974, "lng": 11.0045, "city": "Erlangen", "country": "Germany" },
  "University of Würzburg": { "lat": 49.7878, "lng": 9.9358, "city": "Würzburg", "country": "Germany" },
  "University of Münster": { "lat": 51.9635, "lng": 7.6130, "city": "Münster", "country": "Germany" },
  "University of Leipzig": { "lat": 51.3389, "lng": 12.3786, "city": "Leipzig", "country": "Germany" },
  "University of Mainz": { "lat": 49.9912, "lng": 8.2372, "city": "Mainz", "country": "Germany" },
  "Sorbonne University": { "lat": 48.8483, "lng": 2.3434, "city": "Paris", "country": "France" },
  "University of Paris": { "lat": 48.8566, "lng": 2.3522, "city": "Paris", "country": "France" },
  "École Normale Supérieure": { "lat": 48.8422, "lng": 2.3451, "city": "Paris", "country": "France" },
  "École Polytechnique": { "lat": 48.7141, "lng": 2.2123, "city": "Palaiseau", "country": "France" },
  "University of Lyon": { "lat": 45.7640, "lng": 4.8357, "city": "Lyon", "country": "France" },
  "University of Marseille": { "lat": 43.3047, "lng": 5.3765, "city": "Marseille", "country": "France" },
  "University of Toulouse": { "lat": 43.5605, "lng": 1.4628, "city": "Toulouse", "country": "France" },
  "University of Bordeaux": { "lat": 44.8289, "lng": -0.6073, "city": "Bordeaux", "country": "France" },
  "University of Strasbourg": { "lat": 48.5814, "lng": 7.7621, "city": "Strasbourg", "country": "France" },
  "University of Montpellier": { "lat": 43.6319, "lng": 3.8645, "city": "Montpellier", "country": "France" },
  "University of Grenoble Alpes": { "lat": 45.1875, "lng": 5.7592, "city": "Grenoble", "country": "France" },
  "University of Nice Sophia Antipolis": { "lat": 43.6163, "lng": 7.0715, "city": "Nice", "country": "France" },
  "University of Nantes": { "lat": 47.2457, "lng": -1.5475, "city": "Nantes", "country": "France" },
  "University of Rennes": { "lat": 48.1173, "lng": -1.6386, "city": "Rennes", "country": "France" },
  "University of Geneva": { "lat": 46.1985, "lng": 6.1404, "city": "Geneva", "country": "Switzerland" },
  "University of Lausanne": { "lat": 46.5233, "lng": 6.5791, "city": "Lausanne", "country": "Switzerland" },
  "University of Bern": { "lat": 46.9511, "lng": 7.4386, "city": "Bern", "country": "Switzerland" },
  "Swiss Federal Institute of Technology in Lausanne": { "lat": 46.5191, "lng": 6.5668, "city": "Lausanne", "country": "Switzerland" },
  "University of St. Gallen": { "lat": 47.4313, "lng": 9.3756, "city": "St. Gallen", "country": "Switzerland" },
  "University of Fribourg": { "lat": 46.8065, "lng": 7.1618, "city": "Fribourg", "country": "Switzerland" },
  "University of Neuchâtel": { "lat": 46.9969, "lng": 6.9388, "city": "Neuchâtel", "country": "Switzerland" },
  "University of Lugano": { "lat": 46.0104, "lng": 8.9581, "city": "Lugano", "country": "Switzerland" },
  "University of Milan": { "lat": 45.4773, "lng": 9.1815, "city": "Milan", "country": "Italy" },
  "University of Rome La Sapienza": { "lat": 41.9033, "lng": 12.5140, "city": "Rome", "country": "Italy" },
  "University of Bologna": { "lat": 44.4966, "lng": 11.3526, "city": "Bologna", "country": "Italy" },
  "University of Florence": { "lat": 43.7793, "lng": 11.2477, "city": "Florence", "country": "Italy" },
  "University of Naples Federico II": { "lat": 40.8471, "lng": 14.2550, "city": "Naples", "country": "Italy" },
  "University of Turin": { "lat": 45.0653, "lng": 7.6996, "city": "Turin", "country": "Italy" },
  "University of Padua": { "lat": 45.4064, "lng": 11.8768, "city": "Padua", "country": "Italy" },
  "University of Pisa": { "lat": 43.7170, "lng": 10.3982, "city": "Pisa", "country": "Italy" },
  "University of Genoa": { "lat": 44.4155, "lng": 8.9691, "city": "Genoa", "country": "Italy" },
  "University of Venice": { "lat": 45.4352, "lng": 12.3210, "city": "Venice", "country": "Italy" },
  "University of Palermo": { "lat": 38.1121, "lng": 13.3515, "city": "Palermo", "country": "Italy" },
  "University of Catania": { "lat": 37.5021, "lng": 15.0831, "city": "Catania", "country": "Italy" },
  "University of Bari": { "lat": 41.1081, "lng": 16.8783, "city": "Bari", "country": "Italy" },
  "Politecnico di Milano": { "lat": 45.4783, "lng": 9.2279, "city": "Milan", "country": "Italy" },
  "Scuola Normale Superiore": { "lat": 43.7170, "lng": 10.3993, "city": "Pisa", "country": "Italy" },
  "University of Trieste": { "lat": 45.6554, "lng": 13.7966, "city": "Trieste", "country": "Italy" },
  "University of Barcelona": { "lat": 41.3871, "lng": 2.1639, "city": "Barcelona", "country": "Spain" },
  "Autonomous University of Barcelona": { "lat": 41.5008, "lng": 2.1100, "city": "Barcelona", "country": "Spain" },
  "Complutense University of Madrid": { "lat": 40.4488, "lng": -3.7287, "city": "Madrid", "country": "Spain" },
  "Autonomous University of Madrid": { "lat": 40.5456, "lng": -3.6940, "city": "Madrid", "country": "Spain" },
  "University of Valencia": { "lat": 39.4798, "lng": -0.3595, "city": "Valencia", "country": "Spain" },
  "University of Seville": { "lat": 37.3809, "lng": -5.9911, "city": "Seville", "country": "Spain" },
  "University of Granada": { "lat": 37.1811, "lng": -3.6065, "city": "Granada", "country": "Spain" },
  "University of Zaragoza": { "lat": 41.6437, "lng": -0.8977, "city": "Zaragoza", "country": "Spain" },
  "University of Salamanca": { "lat": 40.9615, "lng": -5.6676, "city": "Salamanca", "country": "Spain" },
  "University of Santiago de Compostela": { "lat": 42.8740, "lng": -8.5510, "city": "Santiago de Compostela", "country": "Spain" },
  "University of the Basque Country": { "lat": 43.3076, "lng": -2.9827, "city": "Bilbao", "country": "Spain" },
  "Pompeu Fabra University": { "lat": 41.4037, "lng": 2.1940, "city": "Barcelona", "country": "Spain" },
  "University of Navarra": { "lat": 42.8036, "lng": -1.6601, "city": "Pamplona", "country": "Spain" },
  "Carlos III University of Madrid": { "lat": 40.3156, "lng": -3.7261, "city": "Madrid", "country": "Spain" },
  "Polytechnic University of Catalonia": { "lat": 41.3888, "lng": 2.1131, "city": "Barcelona", "country": "Spain" },
  "University of Porto": { "lat": 41.1780, "lng": -8.5980, "city": "Porto", "country": "Portugal" },
  "University of Lisbon": { "lat": 38.7525, "lng": -9.1579, "city": "Lisbon", "country": "Portugal" },
  "University of Coimbra": { "lat": 40.2073, "lng": -8.4240, "city": "Coimbra", "country": "Portugal" },
  "NOVA University Lisbon": { "lat": 38.7325, "lng": -9.1533, "city": "Lisbon", "country": "Portugal" },
  "University of Minho": { "lat": 41.5608, "lng": -8.3976, "city": "Braga", "country": "Portugal" },
  "University of Aveiro": { "lat": 40.6309, "lng": -8.6575, "city": "Aveiro", "country": "Portugal" },
  "University of the Algarve": { "lat": 37.0426, "lng": -7.9706, "city": "Faro", "country": "Portugal" },
  "Charles University": { "lat": 50.0874, "lng": 14.4211, "city": "Prague", "country": "Czech Republic" },
  "Czech Technical University in Prague": { "lat": 50.1025, "lng": 14.3925, "city": "Prague", "country": "Czech Republic" },
  "Masaryk University": { "lat": 49.1983, "lng": 16.6053, "city": "Brno", "country": "Czech Republic" },
  "University of Chemistry and Technology Prague": { "lat": 50.1014, "lng": 14.3913, "city": "Prague", "country": "Czech Republic" },
  "Palacký University Olomouc": { "lat": 49.5927, "lng": 17.2658, "city": "Olomouc", "country": "Czech Republic" },
  "University of South Bohemia": { "lat": 48.9762, "lng": 14.4533, "city": "České Budějovice", "country": "Czech Republic" },
  "University of West Bohemia": { "lat": 49.7270, "lng": 13.3518, "city": "Plzeň", "country": "Czech Republic" },
  "Comenius University": { "lat": 48.1514, "lng": 17.1056, "city": "Bratislava", "country": "Slovakia" },
  "Slovak University of Technology": { "lat": 48.1513, "lng": 17.0736, "city": "Bratislava", "country": "Slovakia" },
  "University of Žilina": { "lat": 49.2064, "lng": 18.7588, "city": "Žilina", "country": "Slovakia" },
  "Technical University of Košice": { "lat": 48.7312, "lng": 21.2446, "city": "Košice", "country": "Slovakia" },
  "Eötvös Loránd University": { "lat": 47.4752, "lng": 19.0620, "city": "Budapest", "country": "Hungary" },
  "Budapest University of Technology and Economics": { "lat": 47.4814, "lng": 19.0553, "city": "Budapest", "country": "Hungary" },
  "University of Szeged": { "lat": 46.2499, "lng": 20.1487, "city": "Szeged", "country": "Hungary" },
  "University of Debrecen": { "lat": 47.5539, "lng": 21.6215, "city": "Debrecen", "country": "Hungary" },
  "University of Pécs": { "lat": 46.0769, "lng": 18.2288, "city": "Pécs", "country": "Hungary" },
  "Semmelweis University": { "lat": 47.4842, "lng": 19.0659, "city": "Budapest", "country": "Hungary" },
  "Corvinus University of Budapest": { "lat": 47.4867, "lng": 19.0580, "city": "Budapest", "country": "Hungary" },
  "Jagiellonian University": { "lat": 50.0605, "lng": 19.9329, "city": "Krakow", "country": "Poland" },
  "Warsaw University of Technology": { "lat": 52.2200, "lng": 21.0107, "city": "Warsaw", "country": "Poland" },
  "AGH University of Science and Technology": { "lat": 50.0658, "lng": 19.9180, "city": "Krakow", "country": "Poland" },
  "Adam Mickiewicz University": { "lat": 52.4670, "lng": 16.9263, "city": "Poznań", "country": "Poland" },
  "University of Wrocław": { "lat": 51.1141, "lng": 17.0340, "city": "Wrocław", "country": "Poland" },
  "Gdańsk University of Technology": { "lat": 54.3720, "lng": 18.6142, "city": "Gdańsk", "country": "Poland" },
  "University of Łódź": { "lat": 51.7769, "lng": 19.4530, "city": "Łódź", "country": "Poland" },
  "Nicolaus Copernicus University": { "lat": 53.0193, "lng": 18.5723, "city": "Toruń", "country": "Poland" },
  "Medical University of Warsaw": { "lat": 52.2067, "lng": 20.9844, "city": "Warsaw", "country": "Poland" },
  "University of Silesia": { "lat": 50.2877, "lng": 18.6766, "city": "Katowice", "country": "Poland" },
  "Maria Curie-Skłodowska University": { "lat": 51.2421, "lng": 22.5446, "city": "Lublin", "country": "Poland" },
  "University of Gdańsk": { "lat": 54.4135, "lng": 18.5780, "city": "Gdańsk", "country": "Poland" },
  "University of Warmia and Mazury": { "lat": 53.7594, "lng": 20.4560, "city": "Olsztyn", "country": "Poland" },
  "University of Białystok": { "lat": 53.1172, "lng": 23.1470, "city": "Białystok", "country": "Poland" },
  "University of Rzeszów": { "lat": 50.0320, "lng": 22.0046, "city": "Rzeszów", "country": "Poland" },
  "Vilnius University": { "lat": 54.6827, "lng": 25.2879, "city": "Vilnius", "country": "Lithuania" },
  "Kaunas University of Technology": { "lat": 54.8985, "lng": 23.9126, "city": "Kaunas", "country": "Lithuania" },
  "Vytautas Magnus University": { "lat": 54.9040, "lng": 23.9620, "city": "Kaunas", "country": "Lithuania" },
  "Vilnius Gediminas Technical University": { "lat": 54.7052, "lng": 25.2691, "city": "Vilnius", "country": "Lithuania" },
  "Lithuanian University of Health Sciences": { "lat": 54.8963, "lng": 23.9194, "city": "Kaunas", "country": "Lithuania" },
  "University of Latvia": { "lat": 56.9511, "lng": 24.1163, "city": "Riga", "country": "Latvia" },
  "Riga Technical University": { "lat": 56.9477, "lng": 24.0570, "city": "Riga", "country": "Latvia" },
  "Riga Stradiņš University": { "lat": 56.9538, "lng": 24.1231, "city": "Riga", "country": "Latvia" },
  "Latvia University of Life Sciences and Technologies": { "lat": 56.6541, "lng": 23.7128, "city": "Jelgava", "country": "Latvia" },
  "Daugavpils University": { "lat": 55.8691, "lng": 26.5151, "city": "Daugavpils", "country": "Latvia" },
  "University of Tartu": { "lat": 58.3806, "lng": 26.7199, "city": "Tartu", "country": "Estonia" },
  "Tallinn University of Technology": { "lat": 59.3950, "lng": 24.6717, "city": "Tallinn", "country": "Estonia" },
  "Tallinn University": { "lat": 59.4388, "lng": 24.7711, "city": "Tallinn", "country": "Estonia" },
  "Estonian University of Life Sciences": { "lat": 58.3847, "lng": 26.6975, "city": "Tartu", "country": "Estonia" },
  "Estonian Academy of Arts": { "lat": 59.4371, "lng": 24.7485, "city": "Tallinn", "country": "Estonia" },
  "University of Athens": { "lat": 37.9680, "lng": 23.7795, "city": "Athens", "country": "Greece" },
  "Aristotle University of Thessaloniki": { "lat": 40.6306, "lng": 22.9595, "city": "Thessaloniki", "country": "Greece" },
  "National Technical University of Athens": { "lat": 37.9733, "lng": 23.7863, "city": "Athens", "country": "Greece" },
  "University of Crete": { "lat": 35.3053, "lng": 25.0709, "city": "Heraklion", "country": "Greece" },
  "University of Patras": { "lat": 38.2889, "lng": 21.7862, "city": "Patras", "country": "Greece" },
  "University of Ioannina": { "lat": 39.6203, "lng": 20.8373, "city": "Ioannina", "country": "Greece" },
  "Athens University of Economics and Business": { "lat": 37.9942, "lng": 23.7324, "city": "Athens", "country": "Greece" },
  "University of Belgrade": { "lat": 44.8176, "lng": 20.4569, "city": "Belgrade", "country": "Serbia" },
  "University of Novi Sad": { "lat": 45.2469, "lng": 19.8515, "city": "Novi Sad", "country": "Serbia" },
  "University of Niš": { "lat": 43.3209, "lng": 21.8959, "city": "Niš", "country": "Serbia" },
  "University of Kragujevac": { "lat": 44.0107, "lng": 20.9113, "city": "Kragujevac", "country": "Serbia" },
  "University of Zagreb": { "lat": 45.8103, "lng": 15.9704, "city": "Zagreb", "country": "Croatia" },
  "University of Split": { "lat": 43.5126, "lng": 16.4681, "city": "Split", "country": "Croatia" },
  "University of Rijeka": { "lat": 45.3281, "lng": 14.4408, "city": "Rijeka", "country": "Croatia" },
  "University of Osijek": { "lat": 45.5597, "lng": 18.6783, "city": "Osijek", "country": "Croatia" },
  "University of Ljubljana": { "lat": 46.0499, "lng": 14.5039, "city": "Ljubljana", "country": "Slovenia" },
  "University of Maribor": { "lat": 46.5588, "lng": 15.6382, "city": "Maribor", "country": "Slovenia" },
  "University of Primorska": { "lat": 45.5484, "lng": 13.7303, "city": "Koper", "country": "Slovenia" },
  "University of Nova Gorica": { "lat": 45.9573, "lng": 13.6456, "city": "Nova Gorica", "country": "Slovenia" },
  "University of Sarajevo": { "lat": 43.8563, "lng": 18.3950, "city": "Sarajevo", "country": "Bosnia and Herzegovina" },
  "University of Banja Luka": { "lat": 44.7645, "lng": 17.1897, "city": "Banja Luka", "country": "Bosnia and Herzegovina" },
  "University of Mostar": { "lat": 43.3388, "lng": 17.8072, "city": "Mostar", "country": "Bosnia and Herzegovina" },
  "University of Tuzla": { "lat": 44.5408, "lng": 18.6670, "city": "Tuzla", "country": "Bosnia and Herzegovina" },
  "University of Montenegro": { "lat": 42.4415, "lng": 19.2622, "city": "Podgorica", "country": "Montenegro" },
  "University of Donja Gorica": { "lat": 42.3909, "lng": 19.2108, "city": "Podgorica", "country": "Montenegro" },
  "Mediterranean University": { "lat": 42.4280, "lng": 18.7712, "city": "Podgorica", "country": "Montenegro" },
  "University of Skopje": { "lat": 41.9981, "lng": 21.4254, "city": "Skopje", "country": "North Macedonia" },
  "University of Bitola": { "lat": 41.0297, "lng": 21.3351, "city": "Bitola", "country": "North Macedonia" },
  "University of Tetovo": { "lat": 42.0069, "lng": 20.9715, "city": "Tetovo", "country": "North Macedonia" },
  "Goce Delčev University": { "lat": 41.7155, "lng": 22.1859, "city": "Štip", "country": "North Macedonia" },
  "University of Tirana": { "lat": 41.3186, "lng": 19.8213, "city": "Tirana", "country": "Albania" },
  "Polytechnic University of Tirana": { "lat": 41.3478, "lng": 19.8250, "city": "Tirana", "country": "Albania" },
  "Agricultural University of Tirana": { "lat": 41.3209, "lng": 19.8207, "city": "Tirana", "country": "Albania" },
  "University of Arts": { "lat": 41.3239, "lng": 19.8196, "city": "Tirana", "country": "Albania" },
  "University of Sofia": { "lat": 42.6744, "lng": 23.3306, "city": "Sofia", "country": "Bulgaria" },
  "Technical University of Sofia": { "lat": 42.6576, "lng": 23.3532, "city": "Sofia", "country": "Bulgaria" },
  "Plovdiv University": { "lat": 42.1365, "lng": 24.7395, "city": "Plovdiv", "country": "Bulgaria" },
  "Medical University of Sofia": { "lat": 42.6845, "lng": 23.3501, "city": "Sofia", "country": "Bulgaria" },
  "University of Bucharest": { "lat": 44.4353, "lng": 26.0995, "city": "Bucharest", "country": "Romania" },
  "Politehnica University of Bucharest": { "lat": 44.4397, "lng": 26.0473, "city": "Bucharest", "country": "Romania" },
  "Babeș-Bolyai University": { "lat": 46.7667, "lng": 23.5897, "city": "Cluj-Napoca", "country": "Romania" },
  "Alexandru Ioan Cuza University": { "lat": 47.1741, "lng": 27.5749, "city": "Iași", "country": "Romania" },
  "University of Medicine and Pharmacy Bucharest": { "lat": 44.4515, "lng": 26.0877, "city": "Bucharest", "country": "Romania" },
  "West University of Timișoara": { "lat": 45.7471, "lng": 21.2306, "city": "Timișoara", "country": "Romania" },
  "University of Craiova": { "lat": 44.3180, "lng": 23.8017, "city": "Craiova", "country": "Romania" },
  "Ovidius University": { "lat": 44.1732, "lng": 28.6340, "city": "Constanța", "country": "Romania" },
  "Transylvania University of Brașov": { "lat": 45.6519, "lng": 25.5909, "city": "Brașov", "country": "Romania" },
  "University of Oradea": { "lat": 47.0458, "lng": 21.9189, "city": "Oradea", "country": "Romania" },
  "Ștefan cel Mare University": { "lat": 47.6423, "lng": 26.2573, "city": "Suceava", "country": "Romania" },
  "University of Pitești": { "lat": 44.8545, "lng": 24.8692, "city": "Pitești", "country": "Romania" },
  "1 Decembrie 1918 University": { "lat": 46.0680, "lng": 23.5805, "city": "Alba Iulia", "country": "Romania" },
  "University of Petroșani": { "lat": 45.4129, "lng": 23.3730, "city": "Petroșani", "country": "Romania" },
  "Valahia University": { "lat": 44.9247, "lng": 25.4571, "city": "Târgoviște", "country": "Romania" },
  "Moldova State University": { "lat": 47.0245, "lng": 28.8322, "city": "Chișinău", "country": "Moldova" },
  "Technical University of Moldova": { "lat": 47.0572, "lng": 28.8034, "city": "Chișinău", "country": "Moldova" },
  "Moldova State University of Medicine and Pharmacy": { "lat": 47.0290, "lng": 28.8143, "city": "Chișinău", "country": "Moldova" },
  "Academy of Economic Studies of Moldova": { "lat": 47.0212, "lng": 28.8322, "city": "Chișinău", "country": "Moldova" },
  "Taras Shevchenko National University of Kyiv": { "lat": 50.4422, "lng": 30.5102, "city": "Kyiv", "country": "Ukraine" },
  "National Technical University of Ukraine": { "lat": 50.4490, "lng": 30.4568, "city": "Kyiv", "country": "Ukraine" },
  "Ivan Franko National University of Lviv": { "lat": 49.8347, "lng": 24.0151, "city": "Lviv", "country": "Ukraine" },
  "V. N. Karazin Kharkiv National University": { "lat": 50.0039, "lng": 36.2284, "city": "Kharkiv", "country": "Ukraine" },
  "Odesa I. I. Mechnikov National University": { "lat": 46.4584, "lng": 30.7562, "city": "Odesa", "country": "Ukraine" },
  "Oles Honchar Dnipro National University": { "lat": 48.4323, "lng": 35.0422, "city": "Dnipro", "country": "Ukraine" },
  "Yuriy Fedkovych Chernivtsi National University": { "lat": 48.2966, "lng": 25.9239, "city": "Chernivtsi", "country": "Ukraine" },
  "Sumy State University": { "lat": 50.8947, "lng": 34.8435, "city": "Sumy", "country": "Ukraine" },
  "Vinnytsia National Technical University": { "lat": 49.2352, "lng": 28.4140, "city": "Vinnytsia", "country": "Ukraine" },
  "Zaporizhzhia National University": { "lat": 47.8167, "lng": 35.1902, "city": "Zaporizhzhia", "country": "Ukraine" },
  "Belarusian State University": { "lat": 53.8938, "lng": 27.5460, "city": "Minsk", "country": "Belarus" },
  "Belarusian National Technical University": { "lat": 53.9207, "lng": 27.5906, "city": "Minsk", "country": "Belarus" },
  "Belarusian State University of Informatics and Radioelectronics": { "lat": 53.9176, "lng": 27.5945, "city": "Minsk", "country": "Belarus" },
  "Belarusian State Medical University": { "lat": 53.9248, "lng": 27.6003, "city": "Minsk", "country": "Belarus" },
  "Moscow State University": { "lat": 55.7033, "lng": 37.5301, "city": "Moscow", "country": "Russia" },
  "Saint Petersburg State University": { "lat": 59.9419, "lng": 30.2986, "city": "Saint Petersburg", "country": "Russia" },
  "Novosibirsk State University": { "lat": 54.8479, "lng": 83.0945, "city": "Novosibirsk", "country": "Russia" },
  "Moscow Institute of Physics and Technology": { "lat": 55.9297, "lng": 37.5199, "city": "Dolgoprudny", "country": "Russia" },
  "Bauman Moscow State Technical University": { "lat": 55.7658, "lng": 37.6844, "city": "Moscow", "country": "Russia" },
  "National Research Nuclear University MEPhI": { "lat": 55.6507, "lng": 37.6646, "city": "Moscow", "country": "Russia" },
  "Higher School of Economics": { "lat": 55.7532, "lng": 37.6501, "city": "Moscow", "country": "Russia" },
  "ITMO University": { "lat": 59.9570, "lng": 30.3083, "city": "Saint Petersburg", "country": "Russia" },
  "Peter the Great St. Petersburg Polytechnic University": { "lat": 60.0076, "lng": 30.3731, "city": "Saint Petersburg", "country": "Russia" },
  "Tomsk State University": { "lat": 56.4685, "lng": 84.9483, "city": "Tomsk", "country": "Russia" },
  "National Research University of Electronic Technology": { "lat": 55.9824, "lng": 37.2096, "city": "Zelenograd", "country": "Russia" },
  "Kazan Federal University": { "lat": 55.7902, "lng": 49.1224, "city": "Kazan", "country": "Russia" },
  "Ural Federal University": { "lat": 56.8431, "lng": 60.6530, "city": "Yekaterinburg", "country": "Russia" },
  "Far Eastern Federal University": { "lat": 43.0257, "lng": 131.8945, "city": "Vladivostok", "country": "Russia" },
  "Southern Federal University": { "lat": 47.2166, "lng": 39.6283, "city": "Rostov-on-Don", "country": "Russia" },
  "Siberian Federal University": { "lat": 56.0057, "lng": 92.8792, "city": "Krasnoyarsk", "country": "Russia" },
  "Lobachevsky State University of Nizhny Novgorod": { "lat": 56.3002, "lng": 43.9343, "city": "Nizhny Novgorod", "country": "Russia" },
  "Samara National Research University": { "lat": 53.2120, "lng": 50.1768, "city": "Samara", "country": "Russia" },
  "South Ural State University": { "lat": 55.1596, "lng": 61.3688, "city": "Chelyabinsk", "country": "Russia" },
  "Immanuel Kant Baltic Federal University": { "lat": 54.7245, "lng": 20.5229, "city": "Kaliningrad", "country": "Russia" },
  "Georgian Technical University": { "lat": 41.7225, "lng": 44.7786, "city": "Tbilisi", "country": "Georgia" },
  "Tbilisi State University": { "lat": 41.7098, "lng": 44.7670, "city": "Tbilisi", "country": "Georgia" },
  "Ilia State University": { "lat": 41.7092, "lng": 44.7497, "city": "Tbilisi", "country": "Georgia" },
  "Tbilisi State Medical University": { "lat": 41.7108, "lng": 44.7780, "city": "Tbilisi", "country": "Georgia" },
  "Yerevan State University": { "lat": 40.1837, "lng": 44.5149, "city": "Yerevan", "country": "Armenia" },
  "American University of Armenia": { "lat": 40.1934, "lng": 44.5081, "city": "Yerevan", "country": "Armenia" },
  "National Polytechnic University of Armenia": { "lat": 40.1867, "lng": 44.5152, "city": "Yerevan", "country": "Armenia" },
  "Yerevan State Medical University": { "lat": 40.1823, "lng": 44.5163, "city": "Yerevan", "country": "Armenia" },
  "Baku State University": { "lat": 40.3665, "lng": 49.8352, "city": "Baku", "country": "Azerbaijan" },
  "Azerbaijan State Oil and Industry University": { "lat": 40.3772, "lng": 49.8494, "city": "Baku", "country": "Azerbaijan" },
  "ADA University": { "lat": 40.3803, "lng": 49.8472, "city": "Baku", "country": "Azerbaijan" },
  "Khazar University": { "lat": 40.4093, "lng": 49.8672, "city": "Baku", "country": "Azerbaijan" },
  "Nazarbayev University": { "lat": 51.0906, "lng": 71.3983, "city": "Nur-Sultan", "country": "Kazakhstan" },
  "Al-Farabi Kazakh National University": { "lat": 43.2193, "lng": 76.9272, "city": "Almaty", "country": "Kazakhstan" },
  "Kazakh National Research Technical University": { "lat": 43.2370, "lng": 76.9462, "city": "Almaty", "country": "Kazakhstan" },
  "L. N. Gumilyov Eurasian National University": { "lat": 51.1598, "lng": 71.4072, "city": "Nur-Sultan", "country": "Kazakhstan" },
  "National University of Uzbekistan": { "lat": 41.3036, "lng": 69.2446, "city": "Tashkent", "country": "Uzbekistan" },
  "Tashkent State Technical University": { "lat": 41.3270, "lng": 69.2847, "city": "Tashkent", "country": "Uzbekistan" },
  "Samarkand State University": { "lat": 39.6542, "lng": 66.9597, "city": "Samarkand", "country": "Uzbekistan" },
  "Westminster International University in Tashkent": { "lat": 41.3415, "lng": 69.2649, "city": "Tashkent", "country": "Uzbekistan" },
  "American University of Central Asia": { "lat": 42.8220, "lng": 74.6026, "city": "Bishkek", "country": "Kyrgyzstan" },
  "Kyrgyz State Technical University": { "lat": 42.8434, "lng": 74.5815, "city": "Bishkek", "country": "Kyrgyzstan" },
  "Kyrgyz National University": { "lat": 42.8447, "lng": 74.6216, "city": "Bishkek", "country": "Kyrgyzstan" },
  "Osh State University": { "lat": 40.5298, "lng": 72.8018, "city": "Osh", "country": "Kyrgyzstan" },
  "Tajik National University": { "lat": 38.5711, "lng": 68.7832, "city": "Dushanbe", "country": "Tajikistan" },
  "Tajik Technical University": { "lat": 38.5527, "lng": 68.7740, "city": "Dushanbe", "country": "Tajikistan" },
  "Russian-Tajik Slavonic University": { "lat": 38.5760, "lng": 68.7892, "city": "Dushanbe", "country": "Tajikistan" },
  "Avicenna Tajik State Medical University": { "lat": 38.5590, "lng": 68.7941, "city": "Dushanbe", "country": "Tajikistan" },
  "State University of Turkmenistan": { "lat": 37.9380, "lng": 58.3866, "city": "Ashgabat", "country": "Turkmenistan" },
  "Turkmen State Medical University": { "lat": 37.9600, "lng": 58.3260, "city": "Ashgabat", "country": "Turkmenistan" },
  "Turkmen Agricultural University": { "lat": 37.9116, "lng": 58.3884, "city": "Ashgabat", "country": "Turkmenistan" },
  "International University for the Humanities and Development": { "lat": 37.9605, "lng": 58.3920, "city": "Ashgabat", "country": "Turkmenistan" }
}